,City_name,Lat,Lng,Max_temp,Humidity,Cloudiness,Wind_Speed,Country,Date
0,Caborca,30.5838,-111.101,85.89,8,5,11.74,MX,1619300631
1,Iqaluit,63.7506,-68.5145,32.0,86,75,3.44,CA,1619300793
2,Busselton,-33.65,115.3333,51.01,90,0,1.88,AU,1619300634
3,Kibondo,-3.5864,30.7203,60.53,95,100,2.08,TZ,1619300794
4,Amahai,-3.3333,128.9167,80.01,93,100,3.0,ID,1619300637
5,Cidreira,-30.1811,-50.2056,70.84,83,57,10.87,BR,1619300659
6,Nikolskoye,59.7035,30.7861,37.99,70,20,6.71,RU,1619300872
7,Kapaa,22.0752,-159.319,79.0,65,20,13.8,US,1619300656
8,Olean,42.0776,-78.4297,59.0,33,1,4.61,US,1619300873
9,East London,-33.0153,27.9116,65.91,83,63,5.17,ZA,1619300873
10,Bluff,-46.6,168.3333,46.99,91,98,8.01,NZ,1619300283
11,Barrow,71.2906,-156.7887,28.4,86,1,6.02,US,1619300298
12,Cape Town,-33.9258,18.4232,62.01,88,0,6.91,ZA,1619300683
13,Rikitea,-23.1203,-134.9692,78.66,74,100,14.85,PF,1619300876
14,Ushuaia,-54.8,-68.3,51.8,62,75,5.75,AR,1619300877
15,Punta Arenas,-53.15,-70.9167,51.8,58,0,12.66,CL,1619300742
16,Hobart,-42.8794,147.3294,50.0,71,40,9.22,AU,1619300654
17,Kobryn,52.2138,24.3564,35.91,77,95,6.44,BY,1619300877
18,Yerofey Pavlovich,53.9667,121.9667,33.78,60,77,1.52,RU,1619300878
19,Kedrovyy,56.1667,91.8167,30.2,93,75,4.47,RU,1619300878
20,Thompson,55.7435,-97.8558,26.6,54,75,8.05,CA,1619300840
21,Santa Luzia,-19.7697,-43.8514,78.8,41,0,3.44,BR,1619300879
22,Chai Nat,15.1167,100.1,82.99,99,100,7.99,TH,1619300879
23,São Filipe,14.8961,-24.4956,72.3,75,53,9.84,CV,1619300879
24,Mataura,-46.1927,168.8643,46.99,91,90,8.01,NZ,1619300299
25,Mar del Plata,-38.0023,-57.5575,62.6,59,20,8.05,AR,1619300880
26,Bugama,4.7341,6.8635,78.53,83,98,3.98,NG,1619300880
27,Batagay,67.6333,134.6333,19.11,93,100,3.67,RU,1619300881
28,Colonia Carlos Antonio López,-26.4,-54.7667,63.19,99,100,3.47,PY,1619300881
29,Port Augusta,-32.5,137.7667,48.2,93,0,3.44,AU,1619300883
30,Sørland,67.667,12.6934,36.37,68,80,23.38,NO,1619300684
31,Port Alfred,-33.5906,26.891,66.4,86,69,8.01,ZA,1619300371
32,Lisala,2.15,21.5167,73.9,88,100,2.1,CD,1619300884
33,Ribeira Grande,38.5167,-28.7,59.86,73,95,22.82,PT,1619300884
34,Grindavik,63.8424,-22.4338,44.6,100,90,21.85,IS,1619300884
35,Antigonish,45.6169,-61.9986,46.99,62,87,5.01,CA,1619300712
36,Kismayo,-0.3582,42.5454,81.61,74,42,10.18,SO,1619300885
37,Castro,-24.7911,-50.0119,62.15,71,82,0.78,BR,1619300772
38,Saint-Joseph,-21.3667,55.6167,77.0,83,90,19.57,RE,1619300886
39,Sitka,57.0531,-135.33,60.8,23,20,4.61,US,1619300886
40,Amuntai,-2.4177,115.2494,72.59,88,37,2.28,ID,1619300888
41,Departamento de Maldonado,-34.6667,-54.9167,66.2,82,75,19.57,UY,1619300888
42,Tuktoyaktuk,69.4541,-133.0374,24.8,80,40,8.05,CA,1619300889
43,Qaanaaq,77.484,-69.3632,27.39,70,93,7.25,GL,1619300889
44,Sri Aman,1.2376,111.4621,77.0,88,82,2.3,MY,1619300889
45,Codrington,-38.2667,141.9667,53.19,86,92,4.97,AU,1619300685
46,Yellowknife,62.456,-114.3525,19.4,49,75,11.5,CA,1619300890
47,Vila Franca do Campo,37.7167,-25.4333,59.0,82,75,12.66,PT,1619300890
48,Būlaevo,54.9056,70.4439,42.71,45,100,13.49,KZ,1619300891
49,Albany,42.6001,-73.9662,68.0,27,75,8.05,US,1619300744
50,Serebryanyy Bor,56.8,124.8,27.72,94,95,4.74,RU,1619300891
51,Verāval,20.9,70.3667,80.74,77,100,14.85,IN,1619300892
52,Nouakchott,18.0858,-15.9785,66.2,88,38,17.27,MR,1619300892
53,Saint Paul Harbor,57.79,-152.4072,44.6,81,90,5.75,US,1619300675
54,Lavrentiya,65.5833,-171.0,32.07,87,87,1.97,RU,1619300646
55,Chui,-33.6971,-53.4616,66.24,90,100,5.12,UY,1619300893
56,Tula,54.2044,37.6111,34.16,82,77,14.54,RU,1619300893
57,Ambon City,-3.6954,128.1814,75.2,94,40,9.22,ID,1619300894
58,Santa Maria,-29.6842,-53.8069,64.4,100,90,4.61,BR,1619300894
59,Souillac,-20.5167,57.5167,78.8,94,75,18.41,MU,1619300653
60,Lakatoro,-16.0999,167.4164,83.12,77,74,13.38,VU,1619300896
61,Kropotkin,45.4375,40.5756,46.76,73,96,4.68,RU,1619300896
62,Atuona,-9.8,-139.0333,80.78,72,4,16.58,PF,1619300673
63,Mayumba,-3.432,10.6554,78.89,87,92,4.79,GA,1619300897
64,Mauá,-23.6678,-46.4614,69.01,63,26,1.01,BR,1619300897
65,Lebu,-37.6167,-73.65,55.17,77,0,15.12,CL,1619300696
66,Tyup,42.7276,78.3648,37.62,62,100,4.25,KG,1619300898
67,Eyl,7.9803,49.8164,82.72,76,64,6.62,SO,1619300898
68,Chapais,49.7834,-74.8492,48.2,43,75,8.05,CA,1619300901
69,Izhma,65.0083,53.9113,44.82,81,99,8.32,RU,1619300901
70,Shalakusha,62.2247,40.2539,45.05,82,13,7.92,RU,1619300902
71,Vaini,-21.2,-175.2,82.4,78,40,4.61,TO,1619300902
72,Bambous Virieux,-20.3428,57.7575,79.0,94,75,18.41,MU,1619300644
73,Kavieng,-2.5744,150.7967,82.31,77,66,9.13,PG,1619300903
74,Petropavlovsk-Kamchatskiy,53.0452,158.6483,35.6,100,90,4.47,RU,1619300738
75,Saint-Philippe,-21.3585,55.7679,77.0,83,90,19.57,RE,1619300672
76,Danville,36.586,-79.395,54.0,94,90,5.75,US,1619300860
77,Picos,-7.0769,-41.4669,80.04,68,99,2.68,BR,1619300904
78,Camacha,33.0833,-16.3333,62.6,77,20,14.97,PT,1619300728
79,Itarema,-2.9248,-39.9167,78.75,85,99,11.9,BR,1619300906
80,Chokurdakh,70.6333,147.9167,1.58,84,5,5.03,RU,1619300907
81,Meybod,32.2501,54.0166,69.82,44,100,12.5,IR,1619300907
82,Clyde River,70.4692,-68.5914,19.4,93,75,13.8,CA,1619300908
83,Hermanus,-34.4187,19.2345,62.01,81,89,5.99,ZA,1619300660
84,Santoña,43.4439,-3.4576,61.0,88,99,9.37,ES,1619300908
85,Ponta do Sol,32.6667,-17.1,57.0,84,29,3.0,PT,1619300909
86,Manbij,36.5281,37.9549,64.4,36,0,5.75,SY,1619300909
87,Kirsanov,52.6549,42.7224,35.83,81,62,17.98,RU,1619300909
88,Grão Mogol,-16.5594,-42.8897,70.77,53,1,2.64,BR,1619300910
89,Los Llanos de Aridane,28.6585,-17.9182,69.8,46,40,17.27,ES,1619300910
90,Damietta,31.4165,31.8133,64.4,94,0,9.22,EG,1619300910
91,Klaksvík,62.2266,-6.589,42.8,87,20,1.14,FO,1619300911
92,Leningradskiy,69.3833,178.4167,28.58,83,100,4.92,RU,1619300911
93,Salalah,17.0151,54.0924,81.66,73,68,5.86,OM,1619300912
94,Toora-Khem,52.4675,96.11,29.57,85,100,3.33,RU,1619300912
95,Iracoubo,5.4802,-53.2011,77.88,87,100,12.28,GF,1619300912
96,Liaozhong,41.5061,122.7242,46.0,60,0,6.71,CN,1619300913
97,Yangi Marg`ilon,40.4272,71.7189,59.0,47,29,4.61,UZ,1619300913
98,Portland,45.5234,-122.6762,52.0,82,90,8.05,US,1619300722
99,Buala,-8.145,159.5921,83.1,74,79,2.06,SB,1619300914
100,Whitehorse,60.7161,-135.0538,50.0,31,20,3.44,CA,1619300866
101,Mikhaylovka,50.06,43.2379,39.99,81,20,4.0,RU,1619300914
102,Bathsheba,13.2167,-59.5167,82.4,57,20,18.41,BB,1619300915
103,Tasiilaq,65.6145,-37.6368,33.8,93,75,9.22,GL,1619300640
104,Bereket,39.2446,55.5154,71.1,50,85,7.96,TM,1619300915
105,Nyrob,60.733,56.7202,40.82,92,100,9.48,RU,1619300917
106,Jamestown,42.097,-79.2353,57.2,33,1,11.5,US,1619300790
107,Acapulco de Juárez,16.8634,-99.8901,86.0,62,20,9.22,MX,1619300917
108,Kutum,14.2,24.6667,80.02,15,93,9.06,SD,1619300918
109,Saskylakh,71.9167,114.0833,30.88,94,98,9.55,RU,1619300918
110,New Norfolk,-42.7826,147.0587,50.0,89,96,3.94,AU,1619300919
111,Carnarvon,-24.8667,113.6333,62.6,77,0,5.75,AU,1619300701
112,Feicheng,35.2606,117.9675,54.72,74,100,9.62,CN,1619300919
113,Broome,42.2506,-75.833,61.0,29,1,6.91,US,1619300919
114,Goroka,-6.0834,145.3873,62.91,94,100,2.33,PG,1619300920
115,Arraial do Cabo,-22.9661,-42.0278,77.0,78,40,2.3,BR,1619300920
116,Kipini,-2.5257,40.5262,80.83,81,98,10.63,KE,1619300921
117,Tiksi,71.6872,128.8694,31.28,92,100,11.34,RU,1619300633
118,Khatanga,71.9667,102.5,31.71,94,100,16.93,RU,1619300921
119,Tual,-5.6667,132.75,84.79,65,100,14.81,ID,1619300922
120,Mumbai,19.0144,72.8479,82.4,83,20,3.44,IN,1619300840
121,Cockburn Town,21.4612,-71.1419,82.4,65,40,11.5,TC,1619300923
122,Devarkonda,16.7,78.9333,83.73,57,5,5.21,IN,1619300924
123,Kushima,31.4583,131.2333,53.6,94,20,8.05,JP,1619300924
124,Antonina,-25.4286,-48.7119,66.2,55,0,4.61,BR,1619300924
125,Changji,44.0167,87.3167,33.8,55,0,6.71,CN,1619300925
126,Ashta,23.0167,76.7167,83.5,17,97,5.68,IN,1619300925
127,Saldanha,-33.0117,17.9442,59.0,77,95,3.44,ZA,1619300926
128,Kaitangata,-46.2817,169.8464,46.99,83,51,8.88,NZ,1619300926
129,Torbay,47.6666,-52.7314,46.4,61,75,20.71,CA,1619300788
130,Rongcheng,30.634,117.8517,58.77,95,100,4.05,CN,1619300708
131,Hithadhoo,-0.6,73.0833,82.87,69,13,7.87,MV,1619300927
132,Tazovsky,67.4667,78.7,28.6,92,100,13.27,RU,1619300927
133,Upernavik,72.7868,-56.1549,32.16,86,10,5.91,GL,1619300928
134,Taunggyi,20.7833,97.0333,68.11,64,74,2.15,MM,1619300928
135,Dikson,73.5069,80.5464,2.39,99,50,7.34,RU,1619300373
136,Puerto Ayora,-0.7393,-90.3518,80.6,78,75,11.5,EC,1619300929
137,Katsuura,35.1333,140.3,62.01,61,8,5.01,JP,1619300723
138,Port Maria,18.3685,-76.8895,84.0,78,62,1.01,JM,1619300929
139,Port Elizabeth,-33.918,25.5701,53.6,100,87,4.61,ZA,1619300784
140,Mehamn,71.0357,27.8492,32.04,74,76,8.5,NO,1619300755
141,Hong Kong,22.2855,114.1577,77.0,87,83,1.99,HK,1619300796
142,Broken Hill,-31.95,141.4333,48.2,76,0,6.08,AU,1619300930
143,Ahipara,-35.1667,173.1667,64.06,59,10,8.57,NZ,1619300931
144,Örnsköldsvik,63.2909,18.7153,33.8,55,40,8.05,SE,1619300931
145,Aklavik,68.2191,-135.0107,42.8,45,20,9.22,CA,1619300646
146,Auki,-8.7676,160.7034,83.34,71,63,1.92,SB,1619300931
147,Christchurch,-43.5333,172.6333,54.0,100,47,3.44,NZ,1619300732
148,Teya,60.3778,92.6267,30.92,98,100,1.63,RU,1619300932
149,Stornoway,58.2093,-6.3865,48.2,71,91,4.43,GB,1619300932
150,Villa Unión,23.2,-106.2333,86.0,32,75,8.05,MX,1619300933
151,Hasaki,35.7333,140.8333,57.2,82,40,4.61,JP,1619300933
152,Ruteng,-8.6136,120.4721,61.02,93,55,1.3,ID,1619300934
153,Butembo,0.15,29.2833,57.47,98,98,2.71,CD,1619300934
154,Pervomayskoye,43.919,46.7102,53.42,67,58,2.33,RU,1619300934
155,Kruisfontein,-34.0033,24.7314,59.0,93,83,1.01,ZA,1619300935
156,Butaritari,3.0707,172.7902,82.67,76,34,11.01,KI,1619300935
157,Provideniya,64.3833,-173.3,38.39,76,99,0.69,RU,1619300936
158,Northam,51.0333,-4.2167,52.0,60,20,5.01,GB,1619300936
159,Opuwo,-18.0607,13.84,69.19,47,58,2.68,NA,1619300936
160,Powell,40.1578,-83.0752,51.8,76,90,9.22,US,1619300937
161,Khovd,48.0056,91.6419,24.08,23,26,10.25,MN,1619300937
162,Mahébourg,-20.4081,57.7,78.8,94,75,18.41,MU,1619300937
163,Saint George,37.1041,-113.5841,81.0,11,1,27.63,US,1619300938
164,Laas,46.6166,10.7002,52.0,61,0,5.75,IT,1619300938
165,Harper,4.375,-7.7169,82.17,80,66,10.11,LR,1619300939
166,Katangli,51.7102,143.2326,29.88,72,5,9.33,RU,1619300939
167,Jalu,29.0331,21.5482,63.77,72,0,21.45,LY,1619300939
168,Mangan,27.5167,88.5333,65.53,47,40,6.76,IN,1619300767
169,Ballangen,68.3428,16.8315,32.0,80,90,4.61,NO,1619300940
170,Namatanai,-3.6667,152.4333,81.99,75,32,6.6,PG,1619300788
171,Den Helder,52.9599,4.7593,45.0,76,40,9.22,NL,1619300942
172,Kazanskaya,45.4106,40.4361,45.7,72,95,4.45,RU,1619300942
173,Melhus,63.2855,10.2781,36.0,74,98,1.01,NO,1619300943
174,Goundi,9.3627,17.366,83.19,53,44,3.94,TD,1619300943
175,Chegdomyn,51.1167,133.0167,29.23,47,1,3.51,RU,1619300943
176,Zilair,52.2332,57.4392,40.23,98,100,6.78,RU,1619300944
177,Riyadh,24.6877,46.7219,80.6,19,0,6.42,SA,1619300945
178,Alice Springs,-23.7,133.8833,44.6,81,0,3.44,AU,1619300786
179,Olafsvik,64.8945,-23.7142,42.94,87,99,19.64,IS,1619300947
180,Paka,4.6374,103.4368,75.2,100,99,2.3,MY,1619300948
181,Edd,13.9297,41.6925,86.0,58,11,17.67,ER,1619300949
182,Baruun-Urt,46.6806,113.2792,40.62,21,99,10.36,MN,1619300950
183,Belaya Gora,68.5333,146.4167,8.67,95,100,5.88,RU,1619300950
184,Rocha,-34.4833,-54.3333,63.57,93,100,8.95,UY,1619300952
185,Krasnosel'kup,65.7,82.4667,31.12,96,100,8.84,RU,1619300952
186,Bilibino,68.0546,166.4372,26.47,92,100,2.89,RU,1619300952
187,Longyearbyen,78.2186,15.6401,24.8,74,75,5.75,SJ,1619300375
188,Constitución,-35.3333,-72.4167,59.32,70,3,11.43,CL,1619300953
189,Guerrero Negro,27.9769,-114.0611,67.15,56,6,18.12,MX,1619300749
190,Te Anau,-45.4167,167.7167,46.94,83,100,10.31,NZ,1619300953
191,Norman Wells,65.282,-126.8329,39.2,41,75,10.36,CA,1619300954
192,Necochea,-38.5473,-58.7368,59.0,76,58,5.99,AR,1619300954
193,Rock Sound,24.9,-76.2,78.39,77,33,13.56,BS,1619300955
194,Mackay,-21.15,149.2,70.0,94,90,9.22,AU,1619300764
195,Lipin Bor,60.2622,37.9763,40.64,91,100,7.99,RU,1619300955
196,Gangarampur,25.4,88.5167,79.29,30,100,7.25,IN,1619300956
197,Pevek,69.7008,170.3133,23.86,90,100,6.69,RU,1619300742
198,Tucuruí,-3.7661,-49.6725,76.66,93,67,3.65,BR,1619300956
199,Sinnamary,5.3833,-52.95,78.15,87,100,12.46,GF,1619300712
200,Avarua,-21.2078,-159.775,82.4,69,40,13.8,CK,1619300706
201,Burgeo,47.6167,-57.6152,36.68,88,54,15.93,CA,1619300957
202,Poum,-20.2333,164.0167,78.31,80,96,13.49,NC,1619300957
203,Biak,-0.9131,122.8766,75.97,81,91,4.23,ID,1619300754
204,Lüderitz,-26.6481,15.1594,62.35,80,15,2.08,NA,1619300958
205,Severo-Kuril'sk,50.6789,156.125,34.63,98,100,6.4,RU,1619300958
206,Esfarāyen,37.0765,57.5101,60.8,63,0,2.3,IR,1619300959
207,Asău,46.4333,26.4,45.0,50,74,2.77,RO,1619300959
208,Manyana,-23.4,21.7167,63.07,30,0,3.33,BW,1619300959
209,Quincy,42.2529,-71.0023,71.6,19,59,17.27,US,1619300805
210,Mizdah,31.4451,12.9801,56.77,71,0,7.9,LY,1619300960
211,Turaif,31.6725,38.6637,77.0,23,75,11.5,SA,1619300960
212,Indramayu,-6.3264,108.32,78.13,79,77,7.85,ID,1619300961
213,Makakilo City,21.3469,-158.0858,82.4,51,75,6.91,US,1619300850
214,Belyy Yar,53.6039,91.3903,33.8,60,0,6.71,RU,1619300961
215,Buin,-33.7333,-70.75,73.4,31,0,4.61,CL,1619300962
216,Houma,29.5958,-90.7195,84.0,74,90,12.66,US,1619300962
217,Rapid Valley,44.0625,-103.1463,54.0,50,40,17.27,US,1619300963
218,Båtsfjord,70.6345,29.7185,32.58,83,100,12.84,NO,1619300963
219,Lorengau,-2.0226,147.2712,82.44,76,93,4.45,PG,1619300963
220,Mukhen,48.1,136.1,34.0,81,88,9.28,RU,1619300964
221,Airai,-8.9266,125.4092,56.95,91,66,2.73,TL,1619300713
222,Weligama,5.9667,80.4167,77.34,88,82,3.62,LK,1619300964
223,Tura,25.5198,90.2201,74.35,36,100,2.98,IN,1619300965
224,Faanui,-16.4833,-151.75,80.1,70,100,9.93,PF,1619300965
225,Tateyama,34.9833,139.8667,62.01,61,17,5.01,JP,1619300732
226,Prince Rupert,54.3161,-130.3201,53.6,66,1,5.75,CA,1619300967
227,Cooma,-36.2333,149.1333,26.6,93,1,1.54,AU,1619300967
228,Basco,20.4487,121.9702,75.97,73,59,9.62,PH,1619300968
229,Ikongo,-21.8833,47.4333,67.14,98,84,0.6,MG,1619300968
230,Cabedelo,-6.9811,-34.8339,78.8,89,20,4.61,BR,1619300968
231,Faya,18.3851,42.4509,60.8,67,40,6.53,SA,1619300969
232,Henties Bay,-22.116,14.2845,61.0,94,0,1.99,NA,1619300969
233,San Jerónimo,-11.9472,-75.2829,59.72,62,26,7.31,PE,1619300969
234,Polyarny,69.1989,33.4478,32.0,93,75,6.71,RU,1619300970
235,Tazmalt,36.3868,4.3989,65.48,58,89,4.63,DZ,1619300970
236,Port Hardy,50.6996,-127.4199,50.0,87,90,4.61,CA,1619300971
237,Inuvik,68.3499,-133.7218,41.0,48,44,10.36,CA,1619300756
238,Hilo,19.7297,-155.09,73.4,78,90,3.44,US,1619300817
239,São Gabriel da Cachoeira,-0.1303,-67.0892,82.87,76,91,1.9,BR,1619300971
240,The Pas,53.8251,-101.2541,33.8,37,40,17.27,CA,1619300676
241,Beipiao,41.7919,120.7792,43.11,55,63,5.17,CN,1619300972
242,Moose Factory,51.2585,-80.6094,26.6,59,90,8.05,CA,1619300972
243,Catuday,16.2923,119.8062,76.41,76,8,7.02,PH,1619300973
244,Cherskiy,68.75,161.3,18.39,92,94,13.53,RU,1619300742
245,Mnogovershinnyy,53.9353,139.9242,25.05,73,65,7.83,RU,1619300973
246,Lashio,22.9333,97.75,68.02,56,25,1.48,MM,1619300974
247,Rørvik,64.8621,11.2373,38.19,59,100,21.94,NO,1619300974
248,Seydi,39.4816,62.9137,71.51,28,99,10.42,TM,1619300974
249,Ṭikāpur,28.5,81.1333,73.62,33,0,5.06,NP,1619300975
250,Chateaubelair,13.2833,-61.25,80.6,78,75,11.5,VC,1619300975
251,Bredasdorp,-34.5322,20.0403,51.8,93,92,3.44,ZA,1619300976
252,Bachaquero,9.9694,-71.1494,87.28,60,32,0.47,VE,1619300976
253,Kudahuvadhoo,2.6708,72.8944,82.8,67,11,8.01,MV,1619300976
254,Manzanillo,20.3433,-77.1167,88.38,48,21,11.03,CU,1619300978
255,Sal Rei,16.1833,-22.9167,71.6,73,75,16.11,CV,1619300978
256,Bonavista,48.6499,-53.1147,44.6,53,93,11.5,CA,1619300980
257,Bonthe,7.5264,-12.505,81.12,77,13,7.49,SL,1619300980
258,San Andrés,12.5847,-81.7006,86.0,62,75,11.5,CO,1619300982
259,Lukovetskiy,64.2956,41.9211,41.0,75,0,6.71,RU,1619300982
260,Yumen,40.2833,97.2,45.54,41,66,1.1,CN,1619300983
261,Dunedin,-45.8742,170.5036,53.01,60,66,1.99,NZ,1619300735
262,Sola,-13.8833,167.55,80.6,94,90,16.11,VU,1619300983
263,Morondava,-20.2833,44.2833,76.77,77,1,9.95,MG,1619300984
264,Hamilton,39.1834,-84.5333,53.01,87,90,8.05,US,1619300890
265,Abhā,18.2164,42.5053,60.8,67,40,7.2,SA,1619300985
266,Geraldton,-28.7667,114.6,57.2,88,38,6.91,AU,1619300986
267,Qaqortoq,60.7167,-46.0333,57.2,28,75,19.57,GL,1619300986
268,Derzhavīnsk,51.1,66.3167,44.91,42,93,19.51,KZ,1619300987
269,Kualakapuas,-3.0091,114.3876,77.0,94,75,1.14,ID,1619300987
270,Fort Smith,35.3859,-94.3986,69.8,56,75,12.66,US,1619300706
271,Clarence Town,-32.5833,151.7833,60.01,93,0,10.36,AU,1619300987
272,Road Town,18.4167,-64.6167,82.4,69,20,8.05,VG,1619300988
273,Bambari,5.768,20.6757,72.32,94,85,3.4,CF,1619300988
274,Fort Saint James,54.4333,-124.25,49.06,27,50,7.87,CA,1619300989
275,Tuatapere,-46.1333,167.6833,48.0,89,100,11.01,NZ,1619300762
276,Osorno,-40.5667,-73.15,62.6,76,0,4.61,CL,1619300989
277,Spirovo,57.419,34.9766,34.48,77,100,9.42,RU,1619300990
278,Martapura,-3.4167,114.85,77.0,94,75,1.14,ID,1619300990
279,Oistins,13.0667,-59.5333,82.4,57,20,18.41,BB,1619300990
280,Araouane,18.9048,-3.5265,90.99,10,48,6.55,ML,1619300993
281,Kavaratti,10.5669,72.642,83.64,76,22,10.45,IN,1619300995
282,Bethel,41.3712,-73.414,64.99,34,100,1.01,US,1619300995
283,Lingao,19.9103,109.6859,77.49,86,20,5.84,CN,1619300995
284,Balikpapan,-1.2675,116.8289,76.71,85,82,4.25,ID,1619300996
285,Spassk-Ryazanskiy,54.4072,40.3806,37.0,97,70,13.8,RU,1619300996
286,Kununurra,-15.7667,128.7333,57.2,82,15,1.14,AU,1619300997
287,Bushehr,28.9684,50.8385,79.34,51,73,6.58,IR,1619300997
288,Walvis Bay,-22.9575,14.5053,61.0,88,0,6.91,NA,1619300997
289,Kokopo,-4.352,152.2633,80.78,74,45,2.68,PG,1619300998
290,Hede,33.7681,120.2517,56.23,93,100,11.81,CN,1619300998
291,Kahramanmaraş Province,38.0,37.0,64.4,45,40,4.61,TR,1619301001
292,Dubăsari,47.2631,29.1608,46.4,66,0,4.61,MD,1619301001
293,Ciudad Juárez,31.7333,-106.4833,82.4,11,1,13.8,MX,1619300980
294,Korla,41.7597,86.1469,44.83,38,1,19.1,CN,1619301002
295,Port Blair,11.6667,92.75,81.1,73,7,4.21,IN,1619301002
296,Anadyr,64.75,177.4833,32.0,93,40,6.71,RU,1619301003
297,Simav,39.0882,28.9777,51.85,94,100,3.42,TR,1619301003
298,Moranbah,-22.0016,148.0466,67.14,76,100,15.95,AU,1619301004
299,Veshkayma,54.05,47.1333,37.72,84,79,13.89,RU,1619301004
300,Yuancheng,36.652,107.7896,46.27,92,100,4.85,CN,1619301004
301,Grand-Lahou,5.1367,-5.0242,82.51,82,31,10.71,CI,1619301005
302,Nome,64.5011,-165.4064,44.6,53,1,1.92,US,1619301005
303,Adrar,20.5022,-10.0711,83.3,10,42,10.87,MR,1619301007
304,Cabo San Lucas,22.8909,-109.9124,80.01,31,1,11.5,MX,1619300957
305,Nola,40.922,14.5329,55.4,67,0,2.3,IT,1619301009
306,Bay Roberts,47.5999,-53.2648,45.0,71,55,1.99,CA,1619301009
307,Kailua,21.4022,-157.7394,82.4,65,40,14.97,US,1619301009
308,Sangar,63.9242,127.4739,21.97,90,100,1.59,RU,1619301010
309,Qūchān,37.106,58.5095,57.92,53,58,9.42,IR,1619301010
310,Takoradze,4.8845,-1.7554,81.43,82,77,7.52,GH,1619301011
311,Kiryat Gat,31.61,34.7642,64.99,100,14,4.68,IL,1619301004
312,Khani,41.9563,42.9566,46.4,93,0,2.3,GE,1619301012
313,San Patricio,28.017,-97.5169,96.8,11,1,14.97,US,1619301013
314,Lianzhou,24.7811,112.3825,64.65,93,100,5.23,CN,1619301013
315,Bijie,27.3125,105.2942,60.19,93,100,3.36,CN,1619301014
316,Quatre Cocos,-20.2078,57.7625,79.0,94,75,18.41,MU,1619301015
317,Kahului,20.8947,-156.47,80.6,65,40,21.85,US,1619301016
318,Woodward,36.4337,-99.3904,69.8,28,1,3.44,US,1619301017
319,Leeton,-34.5667,146.4,37.4,93,28,3.89,AU,1619301018
320,Barcelos,41.5388,-8.6151,60.8,94,40,6.91,PT,1619300753
321,Belmonte,-15.8631,-38.8828,78.8,78,20,10.36,BR,1619301018
322,Port-Gentil,-0.7193,8.7815,80.6,89,20,5.75,GA,1619301019
323,Zhangaözen,43.3,52.8,62.31,31,3,9.71,KZ,1619301019
324,George Town,5.4112,100.3354,82.0,83,20,6.91,MY,1619300915
325,Meulaboh,4.1363,96.1285,75.09,87,99,3.91,ID,1619301020
326,Nanortalik,60.1432,-45.2371,41.88,75,100,13.96,GL,1619301020
327,Naze,28.3667,129.4833,69.8,68,75,18.41,JP,1619301021
328,Pilar do Sul,-23.8131,-47.7164,63.61,84,2,3.65,BR,1619301021
329,Mareeba,-17.0,145.4333,73.4,100,90,5.75,AU,1619301022
330,Nelson Bay,-32.7167,152.15,55.0,93,0,10.36,AU,1619301022
331,Ngunguru,-35.6167,174.5,63.0,84,9,8.68,NZ,1619301022
332,Tessalit,20.1986,1.0114,90.21,6,0,7.76,ML,1619301023
333,Sciacca,37.5082,13.0881,53.01,81,1,10.0,IT,1619301023
334,Porto-Novo,6.4965,2.6036,86.0,74,20,11.5,BJ,1619301024
335,Banyo,6.75,11.8167,66.15,94,100,0.2,CM,1619301024
336,Rio Grande,-32.035,-52.0986,66.99,90,100,4.07,BR,1619301024
337,Panama City,8.9936,-79.5197,88.0,83,40,4.61,PA,1619300977
338,Bandarbeyla,9.4942,50.8122,82.78,77,74,5.66,SO,1619301025
339,College,64.8569,-147.8028,59.0,24,20,1.43,US,1619301025
340,Ipixuna,-1.7625,-48.8043,77.0,94,90,3.44,BR,1619301026
341,Ola,59.5833,151.2833,19.06,62,100,15.14,RU,1619301026
342,Berlevåg,70.8578,29.0864,33.84,70,99,13.87,NO,1619301026
343,Lahaina,20.8783,-156.6825,80.6,65,40,21.85,US,1619301027
344,Arman',59.7,150.1667,19.27,64,100,12.66,RU,1619301027
345,Manakara,-22.1333,48.0167,69.76,93,41,4.09,MG,1619301029
346,Grand Forks,47.9417,-97.4337,46.99,18,40,3.44,US,1619301029
347,Imbituba,-28.24,-48.6703,71.6,83,40,4.61,BR,1619301030
348,Nacala,-14.5428,40.6728,73.06,96,99,8.21,MZ,1619301030
349,Mount Gambier,-37.8333,140.7667,51.8,100,75,6.91,AU,1619301030
350,Manokwari,-0.8667,134.0833,75.85,91,100,4.27,ID,1619301031
351,Nador,35.174,-2.9287,60.8,94,90,9.22,MA,1619301031
352,Havelock,34.8791,-76.9013,68.0,77,90,8.05,US,1619300757
353,Shiyan,32.6475,110.7781,53.33,93,100,0.36,CN,1619301032
354,Saurimo,-9.6608,20.3916,64.99,91,95,2.06,AO,1619301032
355,Tilichiki,60.4667,166.1,28.0,96,100,2.04,RU,1619301032
356,Tautira,-17.7333,-149.15,86.0,66,75,10.36,PF,1619301033
357,Camaná,-16.6228,-72.7111,69.22,76,22,7.56,PE,1619301033
358,San Isidro,-12.1167,-77.05,68.0,77,40,9.22,PE,1619301034
359,Touros,-5.1989,-35.4608,78.8,83,20,6.91,BR,1619301034
360,Tūkrah,32.5341,20.5791,61.25,82,56,16.96,LY,1619301034
361,Tamale,9.4008,-0.8393,80.82,68,88,16.69,GH,1619301035
362,Beira,-19.8436,34.8389,71.6,88,0,8.66,MZ,1619301035
363,Katherine,-14.4667,132.2667,57.2,67,98,6.91,AU,1619301036
364,Cazzago San Martino,45.5938,10.0419,57.99,60,39,2.06,IT,1619301036
365,Celestún,20.8667,-90.4,85.62,65,54,13.56,MX,1619301036
366,Vao,-22.6667,167.4833,75.96,68,100,13.0,NC,1619300765
367,Yeniseysk,58.4497,92.1703,32.56,99,100,3.42,RU,1619301038
368,Nizwá,22.9333,57.5333,78.89,23,12,2.19,OM,1619301039
369,Morón,-34.6534,-58.6198,69.01,73,0,3.0,AR,1619300742
370,Luganville,-15.5333,167.1667,82.53,81,70,10.49,VU,1619301040
371,Ust-Nera,64.5667,143.2,7.7,91,27,3.42,RU,1619301040
372,Shawnee,39.05,-95.7669,66.2,42,1,3.44,US,1619300980
373,Saint-François,46.4154,3.9054,55.0,66,0,2.3,FR,1619301041
374,Castro Alves,-12.7656,-39.4283,73.08,88,24,5.64,BR,1619301041
375,Keetmanshoop,-26.5833,18.1333,73.4,21,4,8.05,NA,1619301042
376,Suntar,62.1444,117.6319,33.85,89,100,3.83,RU,1619301042
377,Gua Musang,4.8823,101.9644,73.22,97,98,1.07,MY,1619301042
378,Suslovo,56.2167,88.1167,34.3,98,100,6.87,RU,1619301043
379,Laguna,38.421,-121.4238,71.01,34,90,9.22,US,1619301043
380,Marabu,4.4148,114.0089,77.0,100,20,3.44,MY,1619300776
381,Ginir,7.1333,40.7,57.85,89,80,3.31,ET,1619301044
382,Nemuro,43.3236,145.575,36.16,92,100,11.41,JP,1619301044
383,Khorixas,-20.3667,14.9667,70.48,43,30,4.16,NA,1619301045
384,Sitniki,56.4553,44.0666,39.2,93,90,15.66,RU,1619301045
385,San Borja,-14.8167,-66.85,76.37,94,67,4.72,BO,1619301045
386,Touba,8.2833,-7.6833,72.28,93,83,2.1,CI,1619301046
387,Bubaque,11.2833,-15.8333,78.66,65,7,21.12,GW,1619301046
388,Irinjālakuda,10.3333,76.2333,78.8,89,75,2.3,IN,1619301047
389,Kalabo,-14.97,22.6814,67.23,53,57,5.46,ZM,1619301047
390,San Ramon,37.7799,-121.978,68.0,34,75,13.8,US,1619300813
391,Juneau,58.3019,-134.4197,60.8,18,20,13.8,US,1619300943
392,Sur,22.5667,59.5289,84.88,38,1,12.33,OM,1619301048
393,Bisira,8.5196,-81.7115,66.74,78,94,5.08,PA,1619301048
394,Buchanan,5.8808,-10.0467,81.5,82,68,7.61,LR,1619301050
395,Atbasar,51.8,68.3333,44.11,43,100,14.16,KZ,1619301050
396,Narsaq,60.9167,-46.05,57.2,28,75,19.57,GL,1619301050
397,Beringovskiy,63.05,179.3167,31.64,92,100,5.35,RU,1619301051
398,Ilulissat,69.2167,-51.1,46.4,49,40,17.27,GL,1619301051
399,Chu,43.5983,73.7614,45.66,40,98,4.83,KZ,1619300768
400,Mt. Pleasant,32.7941,-79.8626,66.2,100,1,5.75,US,1619301052
401,Saint-Louis,16.3333,-15.0,89.6,31,0,6.91,SN,1619301052
402,Selma,36.5708,-119.6121,75.99,21,75,3.44,US,1619301005
403,Tacoronte,28.4769,-16.4102,66.99,82,75,14.97,ES,1619301053
404,Ruwi,23.5996,58.5507,84.02,51,1,3.38,OM,1619301053
405,Metro,-5.1131,105.3067,73.92,88,69,5.7,ID,1619301054
406,Caçu,-18.5567,-51.1308,72.91,37,9,4.23,BR,1619301054
407,Jaumave,23.4167,-99.3833,98.01,12,40,10.36,MX,1619301054
408,Cuamba,-14.8031,36.5372,66.13,89,52,1.61,MZ,1619301055
409,Susanville,40.4163,-120.653,51.8,43,75,17.27,US,1619301055
410,Kota Belud,6.351,116.4305,77.0,83,20,5.75,MY,1619301056
411,Coyhaique,-45.5752,-72.0662,53.6,71,75,6.91,CL,1619301056
412,Alyangula,-13.8483,136.4192,69.8,100,75,10.71,AU,1619301056
413,Mitsamiouli,-11.3847,43.2844,80.46,76,73,10.45,KM,1619301057
414,Beloha,-25.1667,45.05,73.02,64,4,9.89,MG,1619301057
415,Kawalu,-7.3817,108.2082,69.98,96,73,1.77,ID,1619301057
416,Petrinja,45.4375,16.29,53.01,71,0,3.24,HR,1619301058
417,Paragominas,-2.9667,-47.4833,74.23,96,99,3.27,BR,1619301058
418,Vanimo,-2.6741,141.3028,78.1,86,97,2.66,PG,1619301059
419,Vardø,70.3705,31.1107,34.61,79,100,22.19,NO,1619301059
420,Camacupa,-12.0167,17.4833,63.59,79,82,3.44,AO,1619301059
421,Pocatello,42.8713,-112.4455,59.0,38,20,11.5,US,1619301060
422,Onalaska,43.8844,-91.2351,50.0,62,75,17.27,US,1619301060
423,Ca Mau,9.1769,105.15,78.64,85,55,4.07,VN,1619301062
424,Ekenäs,59.9736,23.4339,35.01,79,100,3.0,FI,1619301062
425,Meadow Lake,34.8014,-106.5436,78.01,14,1,12.06,US,1619301063
426,Flinders,-34.5833,150.8552,59.0,87,0,1.01,AU,1619301063
427,Graham,47.0529,-122.2943,48.99,93,40,6.91,US,1619301063
428,Sirte,31.2089,16.5887,62.24,79,5,16.78,LY,1619301064
429,Ji’an,27.1172,114.9793,62.8,89,100,13.2,CN,1619301064
430,Margate,51.3813,1.3862,48.0,73,63,5.99,GB,1619301065
431,Irpa Irpa,-17.7167,-66.2667,75.2,27,40,11.5,BO,1619301065
432,Davydivka,48.121,25.5646,42.01,77,75,4.81,UA,1619301067
433,Mount Isa,-20.7333,139.5,69.8,56,6,6.91,AU,1619301068
434,Borgustanskaya,44.0547,42.5288,53.6,71,75,6.71,RU,1619301069
435,Trat,12.5,102.5,79.0,99,30,1.39,TH,1619301069
436,Glens Falls,43.3095,-73.644,66.2,22,1,9.22,US,1619301070
437,Ilhabela,-23.7781,-45.3581,71.24,85,29,2.71,BR,1619301070
438,Danilov,58.1908,40.1717,46.06,88,100,12.01,RU,1619301070
439,San Lorenzo,-25.3333,-57.5333,68.0,94,75,6.91,PY,1619301071
440,Marrakesh,31.6315,-8.0083,64.4,59,75,8.05,MA,1619301003
441,Sistranda,63.7256,8.834,35.6,87,75,6.91,NO,1619301073
442,Seoul,37.5683,126.9778,57.2,87,0,3.44,KR,1619300942
443,Melita,49.2681,-100.9967,46.0,29,100,8.01,CA,1619301073
444,Pundaguitan,6.3711,126.1689,82.27,75,100,12.08,PH,1619301074
445,Lokosovo,61.1333,74.8167,34.21,99,100,2.75,RU,1619301074
446,Sumbal,34.2333,74.6333,43.75,45,64,3.56,IN,1619301074
447,Albert Lea,43.648,-93.3683,48.2,46,40,11.5,US,1619301075
448,Luanda,-8.8368,13.2343,77.0,88,20,4.43,AO,1619300980
449,Fortuna,40.5982,-124.1573,59.0,58,20,10.36,US,1619301077
450,Río Gallegos,-51.6226,-69.2181,57.2,47,0,3.44,AR,1619301077
451,Leh,34.1667,77.5833,25.02,32,2,4.43,IN,1619301077
452,Östersund,63.1792,14.6357,30.2,64,47,11.5,SE,1619301078
453,Saquarema,-22.92,-42.5103,77.0,88,75,6.91,BR,1619301057
454,Kapit,2.0167,112.9333,71.92,99,60,1.12,MY,1619301078
455,Redmond,47.674,-122.1215,48.99,94,100,5.59,US,1619300912
456,Villanueva,15.3167,-88.0,96.8,36,20,11.5,HN,1619301064
457,Vila Velha,-20.3297,-40.2925,77.0,73,20,3.44,BR,1619301079
458,Upington,-28.4478,21.2561,68.0,26,0,5.75,ZA,1619301079
459,Palmer,42.1584,-72.3287,71.6,19,75,10.36,US,1619301080
460,Honiara,-9.4333,159.95,83.59,73,71,1.97,SB,1619300795
461,Bourail,-21.5667,165.4833,74.59,84,100,7.78,NC,1619301080
462,Keti Bandar,24.1447,67.4497,81.32,74,0,17.36,PK,1619301081
463,San Cristobal,7.7669,-72.225,87.8,62,40,18.41,VE,1619301081
464,Wanning,18.8003,110.3967,77.41,92,44,8.48,CN,1619301082
465,Novy Urengoy,66.0833,76.6333,29.91,89,100,5.97,RU,1619301082
466,Angoche,-16.2325,39.9086,76.98,78,89,5.61,MZ,1619301082
467,Seminole,28.7086,-81.2081,88.0,48,40,13.8,US,1619301083
468,Hualmay,-11.0964,-77.6139,69.82,78,8,9.82,PE,1619301083
469,Darhan,49.4867,105.9228,41.27,92,100,4.92,MN,1619301084
470,Tumaco,1.7986,-78.8156,80.82,79,35,7.38,CO,1619301084
471,Salinas,36.6777,-121.6555,62.6,51,1,14.97,US,1619301084
472,Mossamedes,-15.1961,12.1522,77.99,78,8,2.08,AO,1619301085
473,Bria,6.5423,21.9863,71.42,89,98,1.68,CF,1619301085
474,Kirakira,-10.4544,161.9205,82.13,77,99,4.12,SB,1619301085
475,Leirvik,59.7798,5.5005,39.0,54,2,3.0,NO,1619301086
476,Ende,-8.8432,121.6623,75.81,87,4,1.72,ID,1619301087
477,Agirish,61.9247,63.0231,42.33,91,100,2.33,RU,1619301088
478,Praia,14.9215,-23.5087,71.6,68,20,17.27,CV,1619301088
479,Sibolga,1.7427,98.7792,75.45,86,100,2.62,ID,1619301089
480,Ürümqi,43.801,87.6005,33.8,55,0,6.71,CN,1619301089
481,São João da Barra,-21.6403,-41.0511,77.0,73,0,7.23,BR,1619301089
482,Praia da Vitória,38.7333,-27.0667,59.0,88,75,27.0,PT,1619301090
483,Feijó,-8.1642,-70.3536,78.84,94,80,0.69,BR,1619301090
484,Atwater,37.3477,-120.6091,73.4,28,1,5.75,US,1619301090
485,Oussouye,12.485,-16.5469,77.0,88,0,4.61,SN,1619301091
486,Sabha,27.0377,14.4283,74.16,31,2,18.99,LY,1619301091
487,Marsá Maţrūḩ,31.3525,27.2453,64.4,63,0,9.22,EG,1619301092
488,Brae,60.3964,-1.353,42.8,75,20,8.05,GB,1619301092
489,Fairbanks,64.8378,-147.7164,59.0,26,1,5.75,US,1619301092
490,Turka,49.1541,23.0297,39.99,75,87,4.25,UA,1619301093
491,Ancud,-41.8697,-73.8203,57.99,88,75,6.91,CL,1619301093
492,Urengoy,65.9667,78.3667,30.67,92,100,6.58,RU,1619301094
493,San Quintín,30.4833,-115.95,63.61,67,59,17.0,MX,1619301094
494,Chicama,-7.8447,-79.1469,66.2,82,20,17.27,PE,1619301094
495,Madimba,-10.4,40.3333,75.09,92,100,7.63,TZ,1619301095
496,Piaçabuçu,-10.4056,-36.4344,78.57,80,72,6.87,BR,1619301096
497,Isangel,-19.55,169.2667,80.6,83,75,12.86,VU,1619301097
498,Bougouni,11.417,-7.479,90.59,28,6,2.24,ML,1619301097
499,Dvinskoy,62.1535,45.1175,43.68,83,27,8.61,RU,1619301097
500,Pierre,44.3683,-100.351,55.99,37,1,9.22,US,1619300892
501,Assiut,27.181,31.1837,71.6,49,0,9.22,EG,1619301098
502,Jacareacanga,-6.2222,-57.7528,80.56,81,100,2.19,BR,1619301098
503,Berbérati,4.2612,15.7922,68.65,93,60,2.35,CF,1619301099
504,Manga,11.6636,-1.0731,92.53,32,55,8.28,BF,1619301099
505,Yongzhou,26.4559,111.5988,59.22,90,100,4.59,CN,1619301100
506,Loikaw,19.6742,97.2094,73.15,73,97,2.46,MM,1619301100
507,Guantánamo,20.1444,-75.2092,86.0,66,40,12.66,CU,1619301101
508,Flin Flon,54.7682,-101.865,28.4,40,75,6.91,CA,1619301101
509,Camocim,-2.9022,-40.8411,77.27,91,100,10.16,BR,1619301101
510,Altamont,42.2068,-121.7372,50.0,66,40,13.8,US,1619301102
511,Mahon,39.8885,4.2658,57.2,94,20,10.36,ES,1619301102
512,Port Macquarie,-31.4333,152.9167,55.99,82,0,3.0,AU,1619301103
513,Magistral'nyy,56.1725,107.4458,32.99,99,100,2.51,RU,1619301103
514,Oddur,4.1213,43.8894,76.84,69,94,10.83,SO,1619301103
515,Bicester,51.9,-1.1536,51.8,50,0,10.36,GB,1619300907
516,Aasiaat,68.7098,-52.8699,34.02,82,8,13.78,GL,1619301104
517,Fuxin,42.0156,121.6589,43.61,46,39,4.85,CN,1619301104
518,Karratha,-20.7377,116.8463,77.0,34,0,7.83,AU,1619301105
519,Smirnykh,49.75,142.8333,31.78,72,100,6.85,RU,1619301105
520,Cap Malheureux,-19.9842,57.6142,79.0,80,100,8.99,MU,1619301105
521,Vanavara,60.34,102.2797,30.24,97,100,1.68,RU,1619301106
522,Itoman,26.1247,127.6694,68.0,83,20,11.5,JP,1619301107
523,Pangkalanbuun,-2.6833,111.6167,73.78,92,82,2.08,ID,1619301108
524,Boddam,57.4667,-1.7833,41.0,87,61,3.44,GB,1619301108
525,Placerville,38.7296,-120.7986,68.0,31,75,5.75,US,1619301109
526,Kushmurun,52.4503,64.6311,47.28,46,85,14.0,KZ,1619301109
527,Manaquiri,-3.3167,-60.35,84.2,79,20,2.3,BR,1619301109
528,Deputatsky,69.3,139.9,13.53,86,100,3.87,RU,1619301110
529,Goderich,43.7501,-81.7165,59.0,36,100,3.44,CA,1619301110
530,Podlesnoye,51.8161,47.009,43.21,79,11,14.65,RU,1619301110
531,Lompoc,34.6391,-120.4579,60.01,67,92,19.57,US,1619301111
532,Bibiani,6.4635,-2.3194,73.56,97,81,2.1,GH,1619301111
533,Talnakh,69.4865,88.3972,20.37,94,100,14.38,RU,1619301112
534,Lata,40.1629,-8.3327,62.01,89,78,3.53,PT,1619301112
535,Aksarka,66.5606,67.7975,32.18,85,100,6.98,RU,1619301112
536,Esperance,-33.8667,121.9,55.4,88,38,16.11,AU,1619301113
537,Kodinsk,58.6881,99.1844,33.03,99,100,1.86,RU,1619301113
538,Saravan,39.7196,45.6483,59.0,63,20,9.22,AM,1619301114
539,Vilyuysk,63.7553,121.6247,31.41,95,100,5.14,RU,1619301114
540,Galich,58.3797,42.3475,44.01,87,99,12.57,RU,1619301115
541,Buraidah,26.326,43.975,80.6,19,0,6.91,SA,1619301116
542,Shenjiamen,29.9576,122.298,60.91,88,100,7.99,CN,1619301116
543,Carbondale,37.7273,-89.2168,57.2,88,90,12.66,US,1619301117
544,Gouyave,12.1646,-61.7296,84.2,65,20,26.46,GD,1619301117
545,Fraga,41.5229,0.3489,57.99,87,0,2.3,ES,1619301117
546,Malinovoye Ozero,51.6753,79.7825,35.92,49,1,4.14,RU,1619301118
547,Māgadi,12.9667,77.2333,71.6,83,20,6.22,IN,1619301118
548,Seryshevo,51.0933,128.3786,34.7,38,0,12.17,RU,1619301119
549,Port-Cartier,50.0334,-66.8654,50.0,43,75,16.11,CA,1619301119
550,Horta,38.5333,-28.6333,58.86,76,97,21.5,PT,1619300899
551,Tanete,-3.9443,119.7848,73.06,95,43,3.62,ID,1619301120
552,Nuuk,64.1835,-51.7216,41.0,65,20,2.75,GL,1619301120
553,Tari,12.4086,4.4914,86.07,40,99,5.23,NG,1619301121
554,Cayenne,4.9333,-52.3333,79.0,89,90,2.3,GF,1619301121
555,Namie,37.4833,141.0,55.0,73,92,5.26,JP,1619301121
556,Kautokeino,69.0125,23.0412,20.43,86,100,9.64,NO,1619301122
557,Ambulu,-8.345,113.6058,73.31,87,3,2.75,ID,1619301122
558,Valentín Gómez Farías,28.2167,-106.5833,75.99,6,0,1.01,MX,1619301122
559,Lodja,-3.4833,23.4333,68.95,92,97,1.77,CD,1619301124
560,Preslav,43.1667,26.8167,51.01,59,94,3.15,BG,1619301124
561,Gladstone,-23.85,151.25,68.0,68,45,5.75,AU,1619301125
562,Manono,-7.3,27.4167,69.51,93,96,0.29,CD,1619301125
563,Bengkulu,-3.8004,102.2655,74.84,88,85,3.78,ID,1619301126
564,Tomatlán,19.9333,-105.25,90.75,28,87,10.74,MX,1619301126
565,Hauterive,46.0901,3.4459,62.6,42,0,3.44,FR,1619301126
566,Chivay,-15.6383,-71.6011,50.52,59,15,10.98,PE,1619301127
567,Kendrapara,20.5042,86.416,80.6,94,40,4.61,IN,1619301127
568,Bonga,7.2833,36.2333,60.33,98,92,1.77,ET,1619301127
569,Boende,-0.2167,20.8667,70.9,95,64,3.29,CD,1619301128
570,Leninsk,48.7119,45.1994,41.0,87,0,6.71,RU,1619301128
571,Vallenar,-28.5708,-70.7581,68.59,51,0,5.19,CL,1619301129
